zona_id,nombre,lat,lon,iac,ruido,co2,temperatura,fecha,hora


Z001,Centro,19.845,-90.536,75,62,520,30,2025-10-15,12:00

Z002,Col. A,19.830,-90.520,35,58,610,31,2025-10-15,12:00


Z003,Parque B,19.860,-90.550,55,49,480,29,2025-10-15,12:00


Z004,Col. Nueva,19.870,-90.510,80,55,510,32,2025-10-18,10:00


Z005,Parque C,19.860,-90.550,35,69,780,49,2025-10-15,12:00


Z006,Col. Norte,19.870,-90.510,80,55,510,32,2025-10-18,12:00


Z007,Col. 6,19.855,-90.530,70,45,540,42,2025-10-18,12:00
